City_ID,City,Lat,Lng,Max Temp,Humidity,Cloudiness,Wind Speed,Country,Date
0,port-aux-francais,-49.35,70.2167,2.46,80,62,10.62,TF,1697958605
1,adamstown,-25.066,-130.1015,22.43,85,0,4.39,PN,1697958605
2,kariapatti,9.6751,78.0999,33.29,55,20,2.57,IN,1697958605
3,bodaybo,57.8506,114.1933,5.17,55,100,1.11,RU,1697958578
4,waitangi,-43.9535,-176.5597,9.22,66,100,10.64,NZ,1697958606
5,neryungri,56.6709,124.6491,-1.51,80,50,3.73,RU,1697958606
6,bredasdorp,-34.5322,20.0403,17.02,69,23,9.14,ZA,1697958606
7,weno,7.4515,151.8468,29.97,74,40,1.54,FM,1697958606
8,invercargill,-46.4,168.35,7.81,69,4,1.84,NZ,1697958607
9,hadibu,12.65,54.0333,25.73,91,100,14.99,YE,1697958607
10,margaret river,-33.95,115.0667,16.19,65,36,6.55,AU,1697958372
11,kodiak,57.79,-152.4072,0.73,75,0,2.57,US,1697958607
12,waingapu,-9.6567,120.2641,31.9,47,37,5.85,ID,1697958607
13,lukow,51.929,22.3796,11.07,88,100,5.19,PL,1697958608
14,edinburgh of the seven seas,-37.0676,-12.3116,13.57,89,15,7.86,SH,1697958608
15,yellowknife,62.456,-114.3525,-4.69,72,18,6.71,CA,1697958608
16,hithadhoo,-0.6,73.0833,27.44,77,57,7.09,MV,1697958608
17,saipan,15.1355,145.701,29.39,74,40,6.17,MP,1697958608
18,west island,-12.1568,96.8225,25.07,75,100,5.54,CC,1697958609
19,albany,42.6001,-73.9662,10.33,80,100,0.45,US,1697958506
20,wailua homesteads,22.0669,-159.378,25.24,88,75,2.06,US,1697958609
21,bilibino,68.0546,166.4372,-6.06,92,100,1.75,RU,1697958609
22,conduaga,8.862,117.4893,29.06,75,97,2.04,PH,1697958609
23,port mathurin,-19.6833,63.4167,24.68,81,0,4.17,MU,1697958610
24,igarka,67.4667,86.5833,-0.79,80,100,5.06,RU,1697958610
25,katabu,-4.9333,122.5167,32.78,47,39,1.88,ID,1697958610
26,ushuaia,-54.8,-68.3,1.32,97,72,2.63,AR,1697958610
27,bethel,41.3712,-73.414,13.05,74,40,3.6,US,1697958434
28,estrela,-28.0611,-50.9383,13.68,91,87,3.46,BR,1697958611
29,mount gambier,-37.8333,140.7667,13.34,56,37,5.9,AU,1697958332
30,argo,37.6333,22.7333,22.1,47,64,0.68,GR,1697958611
31,grytviken,-54.2811,-36.5092,0.44,82,100,4.17,GS,1697958611
32,thunder bay,48.4001,-89.3168,1.99,81,0,1.77,CA,1697958611
33,karimganj,24.8667,92.35,30.54,57,62,0.62,IN,1697958378
34,san patricio,28.017,-97.5169,26.92,81,100,3.48,US,1697958612
35,utrik,11.2278,169.8474,28.07,82,100,6.66,MH,1697958612
36,whitehorse,60.7161,-135.0538,-8.16,58,4,4.02,CA,1697958505
37,iqaluit,63.7506,-68.5145,-5.17,73,99,1.26,CA,1697958612
38,hamilton,39.1834,-84.5333,12.7,80,75,7.72,US,1697958270
39,maceio,-9.6658,-35.7353,22.69,100,75,2.06,BR,1697958397
40,cam ranh,11.9214,109.1591,29.98,66,75,6.17,VN,1697958613
41,tsiombe,-25.3,45.4833,33.39,31,0,4.11,MG,1697958613
42,olinda,-8.0089,-34.8553,25.85,78,75,4.12,BR,1697958613
43,nar'yan-mar,67.6713,53.087,0.04,80,90,9.34,RU,1697958613
44,punta arenas,-53.15,-70.9167,4.06,87,75,6.69,CL,1697958614
45,susuman,62.7833,148.1667,-8.97,95,100,1.71,RU,1697958614
46,stanley,54.868,-1.6985,2.62,95,100,0.51,GB,1697958614
47,yaren,-0.5472,166.916,28.87,78,87,5.3,NR,1697958614
48,kamaishi,39.2667,141.8833,12.73,57,8,4.21,JP,1697958614
49,prado,-17.3411,-39.2208,23.51,77,100,3.01,BR,1697958615
50,georgetown,5.4112,100.3354,31.12,70,20,5.14,MY,1697958615
51,tazacorte,28.629,-17.9293,20.54,68,20,1.54,ES,1697958615
52,sartana,47.1744,37.6927,12.34,81,100,7.0,UA,1697958615
53,papatowai,-46.5619,169.4708,7.33,70,7,2.36,NZ,1697958615
54,hawaiian paradise park,19.5933,-154.9731,23.73,91,100,2.57,US,1697958616
55,tiksi,71.6872,128.8694,-20.76,100,95,0.14,RU,1697958616
56,santana,-0.0583,-51.1817,27.1,89,20,2.57,BR,1697958616
57,wenxing,28.6667,112.8833,26.36,26,0,1.22,CN,1697958616
58,barra de santo antonio,-9.4047,-35.5072,22.6,85,24,3.11,BR,1697958617
59,lycksele,64.5954,18.6735,-16.07,85,100,1.54,SE,1697958617
60,mendi,-6.1761,143.6513,15.53,93,88,1.31,PG,1697958617
61,klyuchi,52.2667,79.1667,7.97,46,100,7.08,RU,1697958617
62,anadyr,64.75,177.4833,6.28,86,100,9.83,RU,1697958617
63,mwanza,-2.5167,32.9,26.46,53,39,3.07,TZ,1697958618
64,georgievka,49.3314,81.5761,11.59,72,100,6.98,KZ,1697958618
65,torpoint,50.3751,-4.1957,10.36,95,3,0.89,GB,1697958618
66,vila franca do campo,37.7167,-25.4333,17.23,99,100,7.49,PT,1697958618
67,makokou,0.5738,12.8642,22.61,95,100,1.38,GA,1697958618
68,papao,-17.75,-149.55,25.82,71,63,4.71,PF,1697958619
69,longyearbyen,78.2186,15.6401,-7.09,68,0,1.54,SJ,1697958619
70,ad dilam,23.9915,47.1627,32.23,21,0,3.02,SA,1697958619
71,san antonio de pale,-1.4014,5.6325,25.7,85,100,5.43,GQ,1697958619
72,rifle,39.5347,-107.7831,14.39,61,20,0.0,US,1697958620
73,guerrero negro,27.9769,-114.0611,20.18,89,0,3.2,MX,1697958620
74,pacific grove,36.6177,-121.9166,14.38,81,2,1.79,US,1697958620
75,tromso,69.6496,18.957,2.01,93,75,1.54,NO,1697958621
76,caleta de carquin,-11.0925,-77.6267,19.65,91,70,3.8,PE,1697958621
77,nemuro,43.3236,145.575,10.7,57,100,9.71,JP,1697958621
78,keflavik,64.0049,-22.5624,5.24,87,75,2.57,IS,1697958621
79,terenozek,45.05,64.9833,14.81,50,100,12.07,KZ,1697958621
80,puerto natales,-51.7236,-72.4875,1.64,94,88,2.3,CL,1697958622
81,tinajo,29.0788,-13.7081,21.49,78,20,4.63,ES,1697958622
82,aasiaat,68.7098,-52.8699,-7.97,89,96,1.93,GL,1697958622
83,boa vista,2.8197,-60.6733,22.99,94,100,2.06,BR,1697958622
84,malanje,-9.5402,16.341,22.09,75,96,1.12,AO,1697958623
85,north bend,43.4065,-124.2243,15.48,94,100,0.0,US,1697958212
86,pangody,65.85,74.4859,-1.99,84,100,9.78,RU,1697958623
87,chulakkurgan,43.765,69.1814,16.2,48,100,12.63,KZ,1697958623
88,afaahiti,-17.75,-149.2833,24.93,80,93,5.34,PF,1697958623
89,port elizabeth,-33.918,25.5701,17.95,66,100,0.89,ZA,1697958624
90,chaiya,9.3862,99.1986,31.21,74,39,4.33,TH,1697958624
91,al marsa,36.8782,10.3247,19.94,68,20,1.03,TN,1697958624
92,kingston,17.997,-76.7936,28.53,89,20,2.06,JM,1697958363
93,luderitz,-26.6481,15.1594,18.51,66,0,0.97,NA,1697958625
94,enewetak,11.3474,162.3373,28.75,70,95,1.74,MH,1697958625
95,shahpura,27.3833,75.9667,30.57,25,13,0.79,IN,1697958625
96,la ronge,55.1001,-105.2842,3.86,65,100,2.43,CA,1697958625
97,adi keyh,14.8444,39.3772,18.01,56,9,2.96,ER,1697958625
98,brooks,50.5834,-111.8851,7.99,68,100,4.63,CA,1697958305
99,colonia,50.9333,6.95,12.55,86,100,2.57,DE,1697958626
100,labytnangi,66.6572,66.4183,-2.94,76,2,6.23,RU,1697958626
101,mukalla,14.5425,49.1242,30.6,51,60,3.52,YE,1697958626
102,urucara,-2.5364,-57.76,26.66,66,50,1.42,BR,1697958626
103,dudinka,69.4058,86.1778,-1.32,82,100,6.07,RU,1697958627
104,quellon,-43.1167,-73.6167,6.03,90,5,2.68,CL,1697958627
105,puerto baquerizo moreno,-0.9,-89.6,23.21,88,100,4.55,EC,1697958627
106,sierra grande,-41.606,-65.3557,8.82,79,69,4.13,AR,1697958627
107,port alfred,-33.5906,26.891,16.77,84,100,0.45,ZA,1697958627
108,enshi,30.3,109.4833,22.7,53,6,0.83,CN,1697958628
109,palmer,42.1584,-72.3287,12.51,66,40,5.66,US,1697958628
110,sake,-1.5736,29.045,24.65,56,11,1.25,CD,1697958628
111,ugoofaaru,5.6667,73.0,28.01,72,11,2.72,MV,1697958629
112,shimoda,34.6667,138.95,15.61,62,53,3.4,JP,1697958629
113,egilsstadir,65.2653,-14.3948,1.95,93,100,1.54,IS,1697958629
114,avarua,-21.2078,-159.775,22.03,94,27,2.57,CK,1697958629
115,st. john's,47.5649,-52.7093,16.75,95,100,0.45,CA,1697958605
116,ilulissat,69.2167,-51.1,-2.99,54,20,5.14,GL,1697958449
117,queenstown,-31.8976,26.8753,9.76,93,100,3.89,ZA,1697958630
118,novodvinsk,64.4165,40.8122,0.8,96,100,2.57,RU,1697958630
119,robertsport,6.7533,-11.3686,25.42,87,90,2.74,LR,1697958630
120,lorca,37.6712,-1.7017,14.24,68,100,2.58,ES,1697958620
121,key west,24.5557,-81.7826,25.56,78,0,0.0,US,1697958386
122,zuunmod,47.7069,106.9528,11.57,32,0,2.32,MN,1697958631
123,lihue,21.9789,-159.3672,25.58,88,75,2.06,US,1697958631
124,lagoa,39.05,-27.9833,18.32,62,100,8.81,PT,1697958631
125,san remo,43.8182,7.7612,17.4,73,6,1.79,IT,1697958631
126,tolanaro,-25.0319,46.9987,29.32,58,0,5.34,MG,1697958632
127,college,64.8569,-147.8028,-4.01,77,100,3.09,US,1697958632
128,ashland,40.8167,-82.2665,8.82,98,96,4.62,US,1697958473
129,serenje,-13.2325,30.2352,26.13,48,100,1.7,ZM,1697958632
130,nantucket,41.2835,-70.0995,15.03,73,0,12.35,US,1697958633
131,sumberpucung,-8.1586,112.4829,31.21,47,25,3.53,ID,1697958633
132,ciudad gustavo diaz ordaz,26.2333,-98.5833,24.58,86,100,5.95,MX,1697958633
133,eraan,9.0629,117.7016,29.25,76,100,2.26,PH,1697958633
134,blackmans bay,-43.0167,147.3167,14.85,76,24,0.89,AU,1697958633
135,horsham,51.064,-0.3272,8.32,98,77,0.51,GB,1697958634
136,mogok,22.9167,96.5,26.83,46,41,1.56,MM,1697958608
137,ghardaia,32.4909,3.6735,17.91,30,11,4.23,DZ,1697958634
138,ribeira grande,38.5167,-28.7,18.22,68,40,4.92,PT,1697958634
139,fandrandava,-21.5208,47.2453,27.66,44,0,1.56,MG,1697958634
140,cantillana,37.6103,-5.8247,15.66,56,100,5.43,ES,1697958635
141,aqadyr,48.2553,72.8483,11.62,58,100,12.3,KZ,1697958635
142,hami,42.8,93.45,18.11,18,0,2.56,CN,1697958635
143,korla,41.7597,86.1469,18.27,21,4,3.54,CN,1697958635
144,masaka,-0.3338,31.7341,24.7,62,20,1.74,UG,1697958635
145,kantunilkin,21.0917,-87.45,20.56,93,32,0.36,MX,1697958636
146,zhangatas,43.5667,69.75,16.87,49,48,15.05,KZ,1697958636
147,recreo,-29.2818,-65.061,24.55,71,0,0.55,AR,1697958636
148,kunduz,36.75,68.75,21.27,45,5,1.69,AF,1697958636
149,narasannapeta,18.4167,84.05,29.71,54,100,4.47,IN,1697958636
150,uturoa,-16.7333,-151.4333,26.41,80,100,4.3,PF,1697958637
151,vilyuysk,63.7553,121.6247,-1.32,84,99,2.56,RU,1697958637
152,chittagong,22.9167,91.5,29.85,68,97,2.59,BD,1697958637
153,cidade velha,14.9167,-23.6167,25.26,83,20,4.12,CV,1697958637
154,biloela,-24.4167,150.5,32.83,26,6,1.66,AU,1697958638
155,peace river,56.2501,-117.286,-2.41,95,76,3.11,CA,1697958457
156,todos santos,23.45,-110.2167,25.25,87,100,16.05,MX,1697958545
157,liberal,37.0431,-100.921,13.58,62,0,5.14,US,1697958428
158,thompson,55.7435,-97.8558,-0.91,93,100,0.0,CA,1697958638
159,touros,-5.1989,-35.4608,25.09,78,74,5.07,BR,1697958639
160,avon lake,41.5053,-82.0282,10.12,81,40,5.66,US,1697958639
161,uray,60.1247,64.7758,1.16,57,7,5.32,RU,1697958634
162,usinsk,65.9939,57.5281,-0.59,91,100,12.08,RU,1697958639
163,talnakh,69.4865,88.3972,-1.55,82,100,3.83,RU,1697958639
164,naze,28.3667,129.4833,21.11,64,57,4.72,JP,1697958640
165,constantia,44.1833,28.65,26.5,47,5,3.34,RO,1697958640
166,la mira,18.035,-102.3266,24.59,91,100,1.47,MX,1697958640
167,saldanha,-33.0117,17.9442,19.76,58,10,1.52,ZA,1697958569
168,iskateley,67.6803,53.1512,-0.03,81,93,9.36,RU,1697958640
169,yuxia,34.0615,108.6291,21.16,47,0,2.06,CN,1697958641
170,al qubbah,32.7616,22.2424,22.93,37,96,6.05,LY,1697958641
171,crane,31.3974,-102.3501,22.76,40,100,6.49,US,1697958641
172,vorgashor,67.5833,63.95,-6.16,90,16,4.96,RU,1697958639
173,kavaratti,10.5669,72.642,28.46,72,12,2.86,IN,1697958642
174,chudovo,59.1167,31.6833,1.45,88,97,2.96,RU,1697958642
175,celestun,20.8667,-90.4,23.4,79,11,5.19,MX,1697958642
176,newport,51.5877,-2.9984,9.18,91,16,1.74,GB,1697958642
177,menongue,-14.6585,17.691,26.11,44,48,2.89,AO,1697958642
178,talakan,50.3167,130.3667,4.0,47,6,4.91,RU,1697958643
179,tionk essil,12.7856,-16.5217,25.56,86,100,1.82,SN,1697958643
180,vernon,50.2581,-119.2691,10.72,86,100,0.51,CA,1697958378
181,fada,9.5667,8.3,22.77,60,100,1.58,NG,1697958643
182,remire-montjoly,4.9167,-52.2667,25.02,100,20,0.0,GF,1697958643
183,heihe,50.2441,127.4902,8.32,30,5,6.16,CN,1697958643
184,terenos,-20.4422,-54.8603,27.84,54,0,8.23,BR,1697958644
185,calama,-22.4667,-68.9333,14.62,44,99,1.72,CL,1697958644
186,yerofey pavlovich,53.9667,121.9667,4.53,40,12,2.58,RU,1697958644
187,ust-nera,64.5667,143.2,-7.8,96,100,3.08,RU,1697958644
188,irece,-11.3042,-41.8558,19.35,63,0,5.6,BR,1697958644
189,alaghsas,17.0187,8.0168,28.67,14,100,5.07,NE,1697958645
190,saint-philippe,-21.3585,55.7679,27.28,69,1,4.54,RE,1697958645
191,extrema,-22.8547,-46.3183,15.24,96,36,1.59,BR,1697958429
192,idri,27.5,13.2667,27.79,16,6,2.95,LY,1697958645
193,nicoya,10.1483,-85.452,23.19,92,99,0.77,CR,1697958645
194,fale old settlement,-9.3852,-171.2468,28.76,73,83,2.72,TK,1697958646
195,badger,64.8,-147.5333,-4.05,76,100,3.09,US,1697958646
196,dingzhou,38.5131,114.9956,23.35,17,0,1.03,CN,1697958646
197,dar kulayb,26.0686,50.5039,33.09,75,0,4.98,BH,1697958647
198,smithers,54.7804,-127.1743,2.38,92,53,1.12,CA,1697958647
199,paradip garh,20.3167,86.6167,28.43,60,100,5.92,IN,1697958647
200,cartagena del chaira,1.3349,-74.8429,21.53,88,47,0.71,CO,1697958647
201,carnarvon,-24.8667,113.6333,24.93,58,100,9.73,AU,1697958647
202,jose maria morelos,23.3952,-103.8984,13.16,86,100,2.18,MX,1697958648
203,ampang,3.1498,101.768,32.77,72,99,1.74,MY,1697958648
204,kattivakkam,13.2167,80.3167,33.37,64,61,6.51,IN,1697958648
205,qaqortoq,60.7167,-46.0333,0.06,48,99,2.8,GL,1697958648
206,kailua-kona,19.6406,-155.9956,23.11,99,79,1.03,US,1697958648
207,monticello,45.3055,-93.7941,8.1,90,75,0.0,US,1697958649
208,el granada,37.5027,-122.4694,17.18,79,100,3.09,US,1697958635
209,olonkinbyen,70.9221,-8.7187,3.08,89,11,3.96,SJ,1697958649
210,brookings,44.3114,-96.7984,6.7,88,0,0.0,US,1697958649
211,westport,41.1415,-73.3579,14.2,75,20,6.17,US,1697958517
212,santa cruz,-17.8,-63.1667,25.7,65,100,3.09,BO,1697958649
213,richfield,44.8833,-93.283,8.12,89,20,2.06,US,1697958650
214,buritizeiro,-17.3511,-44.9622,22.14,76,0,2.27,BR,1697958528
215,avon,41.4517,-82.0354,9.96,84,40,5.66,US,1697958650
216,kibuye,-2.0597,29.3482,22.84,64,15,0.42,RW,1697958556
217,inhambane,-23.865,35.3833,27.54,54,0,4.61,MZ,1697958650
218,nova sintra,14.8667,-24.7167,23.65,74,82,4.62,CV,1697958651
219,box elder,41.5005,-112.8764,15.19,61,3,1.67,US,1697958651
220,beaufort west,-32.3567,22.583,11.43,82,100,6.78,ZA,1697958651
221,haiku-pauwela,20.9219,-156.3051,22.87,87,100,3.09,US,1697958651
222,puerto ayora,-0.7393,-90.3518,22.98,90,28,2.66,EC,1697958651
223,shalqar,47.8333,59.6,6.96,72,100,12.17,KZ,1697958651
224,portland,45.5234,-122.6762,14.99,96,100,1.34,US,1697957880
225,melo,-32.3667,-54.1833,14.81,98,49,3.23,UY,1697958652
226,atafu village,-8.5421,-172.5159,28.95,73,95,3.2,TK,1697958652
227,zaozersk,69.4005,32.4476,-0.08,91,100,4.21,RU,1697958652
228,pudozh,61.8099,36.5345,1.37,81,7,1.56,RU,1697958652
229,tura,25.5198,90.2201,28.89,54,11,1.53,IN,1697958653
230,cabo san lucas,22.8909,-109.9124,26.53,91,100,2.68,MX,1697957890
231,dryden,49.7833,-92.7503,3.92,95,100,0.9,CA,1697958653
232,nueve de julio,-35.4444,-60.8831,15.54,99,100,0.45,AR,1697958653
233,antsiranana,-12.2787,49.2917,29.33,50,0,8.4,MG,1697958654
234,den burg,53.0542,4.7972,12.99,69,100,8.75,NL,1697958654
235,bonthe,7.5264,-12.505,24.27,94,100,2.08,SL,1697958654
236,salaga,8.5508,-0.5188,24.92,84,95,1.15,GH,1697958654
237,tazovsky,67.4667,78.7,-1.22,79,97,8.33,RU,1697958654
238,ilomantsi,62.6716,30.9328,-1.62,61,79,0.99,FI,1697958655
239,vilyuchinsk,52.9306,158.4028,8.15,63,100,3.32,RU,1697958655
240,aykhal,66.0,111.5,-7.24,99,100,2.53,RU,1697958655
241,linden,6.0,-58.3,23.07,100,100,0.82,GY,1697958655
242,homer,59.6425,-151.5483,-0.07,47,0,0.0,US,1697958655
243,port lincoln,-34.7333,135.8667,14.58,55,100,5.19,AU,1697958656
244,sabang,5.8933,95.3214,27.72,69,100,2.88,ID,1697958656
245,hovd,48.0056,91.6419,13.64,30,47,1.64,MN,1697958656
246,las tablas,7.7667,-80.2833,24.97,89,100,1.85,PA,1697958656
247,vadso,70.0744,29.7487,1.49,86,100,2.06,NO,1697958656
248,lobujya,27.95,86.8167,-3.91,57,1,3.44,NP,1697958656
249,margate,51.3813,1.3862,7.95,77,100,4.46,GB,1697958657
250,vylkove,45.4021,29.586,24.06,47,0,4.5,UA,1697958657
251,geraldton,-28.7667,114.6,23.23,68,100,8.23,AU,1697958657
252,sumbe,-11.2061,13.8437,24.14,86,100,1.58,AO,1697958657
253,howard springs,-12.497,131.047,34.95,30,13,5.75,AU,1697958657
254,varzelandia,-15.7014,-44.0275,20.86,75,0,5.11,BR,1697958430
255,bikenibeu village,1.3673,173.1241,26.98,89,100,1.03,KI,1697958658
256,manokwari,-0.8667,134.0833,28.24,77,87,3.68,ID,1697958658
257,johnstown,40.3267,-78.922,10.29,93,100,6.69,US,1697958658
258,ibotirama,-12.1853,-43.2206,23.88,59,8,1.07,BR,1697958658
259,longboat key,27.4125,-82.659,24.44,83,40,3.6,US,1697958629
260,isafjordur,66.0755,-23.124,3.85,84,100,3.42,IS,1697958659
261,shiyan,32.6475,110.7781,20.78,49,0,1.47,CN,1697958567
262,ushtobe,45.2514,77.9838,21.43,32,60,4.17,KZ,1697958659
263,jumla,29.2747,82.1838,17.34,34,6,3.31,NP,1697958659
264,petropavlovsk-kamchatsky,53.0452,158.6483,7.33,61,75,2.0,RU,1697958660
265,palikir - national government center,6.9248,158.1611,28.34,70,99,2.04,FM,1697958660
266,arafat,21.3594,39.9664,33.51,34,0,2.9,SA,1697958660
267,arvika,59.6553,12.5852,3.34,97,100,3.16,SE,1697958660
268,jijel,36.8205,5.7667,20.55,46,100,3.04,DZ,1697958660
269,tefe,-3.3542,-64.7114,22.75,98,100,0.81,BR,1697958661
270,linkou,45.3,130.2833,9.21,41,1,6.28,CN,1697958661
271,svyetlahorsk,52.6329,29.7389,8.17,90,100,4.48,BY,1697958661
272,gadzhiyevo,69.2551,33.3362,0.46,89,100,6.59,RU,1697958661
273,east london,-33.0153,27.9116,17.52,59,75,4.12,ZA,1697958661
274,chegdomyn,51.1167,133.0167,1.39,45,37,2.08,RU,1697958581
275,yacuiba,-22.038,-63.6797,24.57,52,67,2.24,BO,1697958662
276,yuzhno-kurilsk,44.0306,145.8556,10.14,59,100,6.32,RU,1697958662
277,sosnovo-ozerskoye,52.5249,111.5418,8.92,44,99,5.22,RU,1697958662
278,ebon,4.582,168.6964,28.61,74,100,2.74,MH,1697958662
279,dumai,1.6833,101.45,29.64,77,73,0.69,ID,1697958559
280,lompoc,34.6391,-120.4579,13.85,87,0,8.05,US,1697958663
281,zhezqazghan,47.7833,67.7667,8.32,71,100,13.0,KZ,1697958556
282,newman,37.3138,-121.0208,15.72,78,81,1.59,US,1697958663
283,jamestown,42.097,-79.2353,7.77,96,100,4.02,US,1697958499
284,tacuarembo,-31.7333,-55.9833,18.15,97,83,3.59,UY,1697958663
285,shengli,37.4564,118.4856,24.05,22,0,2.92,CN,1697958663
286,karratha,-20.7377,116.8463,32.45,43,0,8.53,AU,1697958664
287,fort mcmurray,56.7268,-111.381,-3.23,80,28,5.66,CA,1697958664
288,chonchi,-42.6128,-73.8092,4.56,95,5,1.65,CL,1697958664
289,alto araguaia,-17.3147,-53.2153,22.92,66,12,2.36,BR,1697958664
290,klaksvik,62.2266,-6.589,8.51,94,100,16.11,FO,1697958664
291,hermanus,-34.4187,19.2345,16.64,73,31,8.96,ZA,1697958665
292,kudahuvadhoo,2.6708,72.8944,27.97,72,63,5.51,MV,1697958665
293,jawf al maqbabah,13.8378,45.8349,27.63,35,34,2.46,YE,1697958665
294,pampierstad,-27.7832,24.6877,20.66,43,6,3.68,ZA,1697958665
295,gulma,12.6423,4.3555,27.63,26,5,2.22,NG,1697958665
296,nelson bay,-32.7167,152.15,24.03,78,12,1.34,AU,1697958666
297,kabare,-2.4683,28.8242,23.48,65,8,1.44,CD,1697958666
298,karbala,32.616,44.0249,29.14,27,100,1.68,IQ,1697958666
299,miyang,24.4042,103.4428,20.18,72,94,2.08,CN,1697958666
300,port augusta,-32.5,137.7667,18.37,40,100,6.78,AU,1697958666
301,tsagan aman,47.5639,46.7218,8.36,45,0,3.25,RU,1697958667
302,benjamin constant,-4.3831,-70.0311,24.07,98,100,0.45,BR,1697958667
303,prince george,53.9166,-122.753,2.01,91,0,0.74,CA,1697958667
304,nikolayevsk-on-amure,53.1406,140.73,1.19,49,100,6.1,RU,1697958667
305,toliara,-23.35,43.6667,28.26,50,0,4.86,MG,1697958571
306,viqueque,-8.8673,126.3658,30.74,53,53,3.28,TL,1697958668
307,magadan,59.5667,150.8,2.04,98,100,8.66,RU,1697958668
308,pitimbu,-7.4706,-34.8086,24.33,81,63,5.39,BR,1697958668
309,freetown,8.484,-13.2299,25.36,87,95,2.12,SL,1697958602
310,kenai,60.5544,-151.2583,-6.97,93,0,0.0,US,1697958668
311,okhotsk,59.3833,143.3,2.09,93,100,15.4,RU,1697958668
312,mar del plata,-38.0023,-57.5575,14.41,93,98,0.45,AR,1697958669
313,frederiksvaerk,55.9707,12.0225,10.24,96,63,3.13,DK,1697958669
314,callao,-12.0667,-77.15,20.4,82,100,3.6,PE,1697958669
315,andilamena,-17.0167,48.5833,26.16,39,4,2.97,MG,1697958669
316,vila velha,-20.3297,-40.2925,21.08,91,100,1.54,BR,1697958670
317,omdurman,15.6445,32.4777,32.36,16,94,7.36,SD,1697958670
318,filey,54.21,-0.2892,6.82,94,100,1.79,GB,1697958670
319,sitka,57.0531,-135.33,4.94,75,0,6.17,US,1697958671
320,camiri,-20.05,-63.5167,21.64,60,100,1.13,BO,1697958671
321,taroa,8.7058,171.2275,28.09,80,100,4.05,MH,1697958671
322,mejit,10.2753,170.8646,27.89,82,100,5.25,MH,1697958671
323,concepcion,-36.827,-73.0498,9.89,87,0,3.6,CL,1697958374
324,trujillo,-8.116,-79.03,18.98,88,100,3.6,PE,1697958672
325,hasaki,35.7333,140.8333,18.22,52,5,3.63,JP,1697958672
326,leava,-14.3,-178.1667,27.16,86,85,6.49,WF,1697958672
327,lerwick,60.1545,-1.1494,9.0,92,100,14.8,GB,1697958672
328,vytegra,61.0064,36.4481,0.82,78,100,1.99,RU,1697958672
329,kharp,66.8014,65.8081,-4.06,83,15,4.32,RU,1697958673
330,montevideo,-34.8335,-56.1674,15.84,100,100,4.63,UY,1697958638
331,andovoranto,-18.95,49.1,28.34,58,0,3.56,MG,1697958673
332,cooper's town,26.8667,-77.5167,26.14,51,0,0.91,BS,1697958673
333,ambodifotatra,-16.9833,49.85,24.93,75,37,2.29,MG,1697958673
334,buala,-8.145,159.5921,27.64,80,67,0.89,SB,1697958673
335,ankazoabo,-22.2833,44.5167,31.87,24,0,4.18,MG,1697958674
336,forster,-32.1667,152.5167,26.05,59,82,2.68,AU,1697958674
337,port hedland,-20.3167,118.5667,32.03,51,67,8.23,AU,1697958674
338,marsa alam,25.0757,34.8918,28.48,53,8,6.04,EG,1697958674
339,cill airne,52.05,-9.5167,6.91,92,67,1.21,IE,1697958675
340,isangel,-19.55,169.2667,22.62,76,89,4.44,VU,1697958675
341,bhimunipatnam,17.8833,83.4333,31.73,55,80,4.99,IN,1697958675
342,ciudad lazaro cardenas,17.9583,-102.2,25.16,89,100,1.64,MX,1697958675
343,la cruz,23.9167,-106.9,26.26,73,100,7.8,MX,1697958675
344,kindu,-2.95,25.95,29.8,56,18,0.73,CD,1697958675
345,codrington,-38.2667,141.9667,12.53,60,100,9.65,AU,1697958676
346,puerto san jose,13.9256,-90.8244,24.49,91,100,3.97,GT,1697958548
347,mount isa,-20.7333,139.5,36.87,7,0,3.09,AU,1697958676
348,altai,46.3722,96.2583,7.11,24,15,3.23,MN,1697958603
349,puerto aysen,-45.4,-72.7,-0.45,99,40,0.5,CL,1697958676
350,sarangani,5.4033,125.4636,29.02,70,4,1.93,PH,1697958677
351,lebu,-37.6167,-73.65,9.07,92,23,5.75,CL,1697958575
352,angaur state,6.906,134.13,28.8,73,54,2.15,PW,1697958677
353,skara,58.3866,13.4384,5.35,94,100,3.13,SE,1697958677
354,kristiansund,63.1115,7.732,6.36,61,20,2.06,NO,1697958677
355,oodweyne,9.4092,45.064,26.22,35,47,1.68,SO,1697958678
356,saint-julien-les-villas,48.2667,4.1,10.98,82,100,3.6,FR,1697958678
357,la grande,45.3246,-118.0877,18.36,47,100,0.73,US,1697958678
358,baikunthpur,23.25,82.55,27.42,34,0,1.83,IN,1697958678
359,santa helena,-2.2311,-45.3,24.5,89,45,1.89,BR,1697958679
360,kandahar,31.0,65.75,25.87,16,0,5.38,AF,1697958679
361,hammond,41.5834,-87.5,9.21,82,100,6.69,US,1697958679
362,bel ombre,-4.6167,55.4167,28.91,70,20,2.57,SC,1697958679
363,revelstoke,50.9832,-118.2023,6.01,100,75,0.0,CA,1697958680
364,udachny,66.4167,112.4,-8.01,94,99,1.79,RU,1697958634
365,shakawe,-18.3667,21.85,32.26,24,7,4.07,BW,1697958680
366,masina,-4.3836,15.3914,25.16,94,75,3.09,CD,1697958680
367,chornomors'k,46.305,30.6548,20.28,72,0,4.41,UA,1697958680
368,saint-joseph,-21.3667,55.6167,26.72,67,0,4.43,RE,1697958681
369,mount pearl,47.5166,-52.7813,16.29,96,100,1.34,CA,1697958681
370,namibe,-15.1961,12.1522,23.26,73,4,1.42,AO,1697958508
371,muriti,-1.9833,32.9167,24.98,61,61,2.53,TZ,1697958618
372,simanggang,1.2472,111.4528,31.17,62,89,0.9,MY,1697958681
373,bubaque,11.2833,-15.8333,27.98,75,97,2.19,GW,1697958584
374,lorengau,-2.0226,147.2712,28.82,69,93,3.56,PG,1697958682
375,muswellbrook,-32.2667,150.9,29.01,17,1,6.67,AU,1697958682
376,tumpat,6.1978,102.171,29.43,71,100,2.82,MY,1697958682
377,alofi,-19.0595,-169.9187,24.24,80,40,3.57,NU,1697958682
378,amasra,41.7463,32.3863,20.03,43,36,2.22,TR,1697958683
379,bazarnyy karabulak,52.2683,46.4144,3.52,44,65,3.45,RU,1697958683
380,tete,-16.1564,33.5867,33.05,43,40,3.09,MZ,1697958683
381,oban,56.4127,-5.4706,5.21,74,82,2.95,GB,1697958683
382,nuku'alofa,-21.1333,-175.2,24.19,94,20,3.6,TO,1697958492
383,sisimiut,66.9395,-53.6735,-4.02,86,86,4.63,GL,1697958684
384,oamaru,-45.0784,170.9801,9.1,78,100,1.91,NZ,1697958684
385,humberto de campos,-2.5983,-43.4611,26.07,79,63,4.13,BR,1697958684
386,buedu,8.2803,-10.3719,21.0,99,93,0.2,SL,1697958684
387,tobruk,32.0836,23.9764,22.87,68,0,3.26,LY,1697958684
388,autazes,-3.5797,-59.1306,26.4,67,97,1.05,BR,1697958685
389,lere,10.387,8.5726,23.13,36,71,1.46,NG,1697958685
390,puerto yuca,2.9383,-73.2083,22.33,94,88,1.4,CO,1697958685
391,champerico,14.3,-91.9167,24.92,91,99,4.42,GT,1697958685
392,petropavlovka,50.6114,105.3196,13.19,38,10,3.22,RU,1697958685
393,happy valley-goose bay,53.3168,-60.3315,4.6,78,100,5.55,CA,1697958686
394,aoulef,26.9667,1.0833,26.44,33,0,3.21,DZ,1697958686
395,flying fish cove,-10.4217,105.6791,28.82,69,75,3.6,CX,1697958686
396,port-vila,-17.7338,168.3219,23.78,83,100,5.14,VU,1697958686
397,saint-pierre,-21.3393,55.4781,27.32,61,0,7.72,RE,1697958686
398,coyhaique,-45.5752,-72.0662,2.97,81,0,3.09,CL,1697958687
399,batie,9.8833,-2.9167,24.68,78,5,1.25,BF,1697958676
400,abepura,-2.6333,140.5833,32.45,52,20,5.14,ID,1697958687
401,ambovombe,-25.1667,46.0833,30.82,43,0,1.84,MG,1697958439
402,piti village,13.4626,144.6933,29.49,77,20,6.69,GU,1697958687
403,mahebourg,-20.4081,57.7,24.93,72,68,4.0,MU,1697958581
404,khandyga,62.6667,135.6,-10.68,95,100,0.12,RU,1697958688
405,howrah,22.5892,88.3103,31.0,62,75,2.57,IN,1697958630
406,sal rei,16.1833,-22.9167,23.11,88,20,1.03,CV,1697958688
407,chibougamau,49.9168,-74.3659,2.79,100,100,7.72,CA,1697958688
408,guangyuan,32.442,105.823,20.02,57,98,1.83,CN,1697958688
409,turpan,42.9333,89.1667,23.05,16,6,1.14,CN,1697958689
410,ormara,25.2088,64.6357,27.65,74,0,5.67,PK,1697958689
411,kone,-21.0595,164.8658,22.83,73,100,2.6,NC,1697958689
412,kapa'a,22.0752,-159.319,25.99,88,75,2.06,US,1697958689
413,kaset wisai,15.6556,103.5836,30.42,57,50,4.52,TH,1697958689
414,yambio,4.5721,28.3955,26.38,72,7,1.91,SS,1697958690
415,vodnyy,63.5046,53.4095,0.42,69,97,6.41,RU,1697958690
416,encheng,22.1839,112.3026,23.31,69,56,4.17,CN,1697958646
417,labasa,-16.4167,179.3833,25.55,88,91,1.37,FJ,1697958690
418,nova vicosa,-17.8919,-39.3719,23.46,80,100,3.5,BR,1697958452
419,kavalerovo,44.2661,135.0572,4.16,80,73,5.26,RU,1697958691
420,chui,-33.6971,-53.4616,16.83,91,100,4.02,UY,1697958691
421,tarawa,1.419,172.984,27.05,89,100,1.03,KI,1697958402
422,urengoy,65.9667,78.3667,-0.67,77,89,7.53,RU,1697958691
423,viedma,-40.8135,-62.9967,11.42,93,100,6.15,AR,1697958692
424,kargopol',61.5071,38.9456,0.45,80,7,2.52,RU,1697958692
425,ataq,14.5377,46.8319,26.55,38,62,2.79,YE,1697958692
426,laojunmiao,39.8333,97.7333,12.03,17,7,5.26,CN,1697958577
427,new norfolk,-42.7826,147.0587,15.51,85,93,1.72,AU,1697958692
428,piacabucu,-10.4056,-36.4344,23.29,89,65,2.35,BR,1697958693
429,lazaro cardenas,17.9583,-102.2,25.16,89,100,1.64,MX,1697958693
430,kapuskasing,49.4169,-82.4331,1.0,93,100,3.6,CA,1697958693
431,camana,-16.6228,-72.7111,19.13,93,100,3.54,PE,1697958693
432,ancud,-41.8697,-73.8203,5.63,87,0,1.37,CL,1697958693
433,burang,30.25,81.1667,4.61,29,100,3.59,CN,1697958694
434,malvan,16.0667,73.4667,32.04,51,99,1.35,IN,1697958694
435,grants,35.1473,-107.8514,7.13,31,0,0.0,US,1697958694
436,port saint john's,-31.6229,29.5448,17.18,80,100,5.56,ZA,1697958694
437,beira,-19.8436,34.8389,30.05,62,40,4.12,MZ,1697958694
438,minab,27.1467,57.0801,31.68,43,0,3.1,IR,1697958695
439,new plymouth,-39.0667,174.0833,13.78,82,30,4.78,NZ,1697958596
440,malinyi,-8.9333,36.1333,32.21,41,59,1.48,TZ,1697958615
441,turaif,31.6725,38.6637,25.14,23,40,10.29,SA,1697958695
442,la passe,45.5549,-0.8967,10.13,76,100,2.9,FR,1697958695
443,richards bay,-28.783,32.0377,19.6,87,100,5.98,ZA,1697958696
444,reggane,26.7158,0.1714,25.87,31,0,2.22,DZ,1697958696
445,vorkuta,67.5,64.0,-5.69,90,14,5.14,RU,1697958696
446,langsa,4.4683,97.9683,29.2,72,99,2.38,ID,1697958696
447,arno,60.1167,18.6333,4.88,87,87,2.96,SE,1697958696
448,berezovyy,51.6667,135.7,2.75,40,0,3.84,RU,1697958697
449,tateyama,34.9833,139.8667,18.02,51,30,2.83,JP,1697958697
450,selfoss,63.9331,-20.9971,3.91,80,100,1.46,IS,1697958697
451,hirschau,49.545,11.9508,10.45,89,100,0.0,DE,1697958697
452,mangai,-4.05,19.5333,25.22,83,100,0.51,CD,1697958698
453,langepas,61.2544,75.2124,0.43,69,100,5.48,RU,1697958698
454,kuta,-8.7233,115.1723,30.0,79,20,3.6,ID,1697958698
455,mahibadhoo,3.7833,72.9667,28.07,74,93,5.72,MV,1697958698
456,la'ie,21.6477,-157.9253,25.25,80,32,0.96,US,1697958698
457,kerikeri,-35.2268,173.9474,14.95,78,0,2.24,NZ,1697958618
458,qamdo,31.1667,97.2333,6.15,29,69,2.79,CN,1697958699
459,sterling,39.0062,-77.4286,11.64,82,75,1.34,US,1697958699
460,campo formoso,-10.5075,-40.3214,17.18,86,19,2.75,BR,1697958699
461,saiha,22.4833,92.9667,31.94,40,37,2.14,IN,1697958599
462,akureyri,65.6835,-18.0878,2.96,81,100,0.0,IS,1697958699
463,sinabang,2.4803,96.3801,25.09,89,100,0.63,ID,1697958700
464,chapaev,50.2,51.1667,4.2,49,7,7.23,KZ,1697958700
465,greymouth,-42.4667,171.2,10.78,82,0,1.86,NZ,1697958700
466,quesnel,52.9999,-122.5029,-2.72,93,0,0.0,CA,1697958701
467,choroszcz,53.1433,22.9889,8.5,97,100,3.09,PL,1697958701
468,morris,40.8334,-74.5329,11.99,72,100,4.63,US,1697958701
469,rikaze,29.25,88.8833,12.01,15,0,2.59,CN,1697958701
470,pangai,-19.8,-174.35,25.1,80,7,2.32,TO,1697958440
471,severo-yeniseyskiy,60.3725,93.0408,-1.64,76,89,7.34,RU,1697958702
472,ovria,38.1833,21.7167,27.85,71,71,2.38,GR,1697958702
473,sao jose da coroa grande,-8.8978,-35.1478,24.33,83,32,3.55,BR,1697958702
474,galliano,29.4422,-90.2992,18.89,94,40,0.0,US,1697958702
475,massawa,15.6097,39.45,32.83,47,18,3.11,ER,1697958703
476,bastos,-21.9219,-50.7339,17.37,79,0,4.54,BR,1697958703
477,lahad datu,5.0268,118.327,31.14,63,100,1.91,MY,1697958703
478,lower sackville,44.7733,-63.6885,14.78,98,100,5.66,CA,1697958703
479,cascais,38.6979,-9.4215,16.14,91,100,3.58,PT,1697958704
480,sur,22.5667,59.5289,32.01,42,20,2.95,OM,1697958704
481,puerto deseado,-47.7503,-65.8938,6.87,74,1,7.2,AR,1697958685
482,fort atkinson,42.9289,-88.8371,6.42,83,5,0.89,US,1697958704
483,wad medani,14.4012,33.5199,33.03,17,5,4.56,SD,1697958556
484,jinka,5.65,36.65,21.58,76,37,0.9,ET,1697958705
485,veselynove,47.3567,31.2349,22.41,44,0,4.98,UA,1697958705
486,hotan,37.0997,79.9269,19.84,12,41,4.29,CN,1697958705
487,umm ruwaba,12.9061,31.2158,32.54,13,1,5.47,SD,1697958705
488,daru,-9.0763,143.2092,25.37,73,100,4.37,PG,1697958705
489,monrovia,6.3005,-10.7969,24.87,87,96,1.46,LR,1697958706
490,corner brook,48.9667,-57.9484,11.09,99,100,1.89,CA,1697958706
491,cobija,-11.0267,-68.7692,24.31,69,91,1.33,BO,1697958706
492,acapulco de juarez,16.8634,-99.8901,26.9,89,40,2.57,MX,1697958410
493,tual,-5.6667,132.75,27.18,76,71,3.59,ID,1697958707
494,tai'an,36.1853,117.12,22.09,28,0,3.78,CN,1697958659
495,radford,37.1318,-80.5764,14.51,72,40,7.72,US,1697958707
496,kimberley,-28.7323,24.7623,19.83,52,0,2.57,ZA,1697958707
497,arawa,-6.2132,155.5367,27.59,86,64,0.64,PG,1697958642
498,nadi,-17.8,177.4167,25.04,85,85,2.99,FJ,1697958707
499,port blair,11.6667,92.75,30.02,74,75,2.06,IN,1697958708
500,llanes,43.4198,-4.7549,14.77,66,100,2.44,ES,1697958708
501,hede,33.7681,120.2517,20.93,36,0,2.3,CN,1697958708
502,uberlandia,-18.9186,-48.2772,22.31,71,4,3.56,BR,1697958426
503,morehead city,34.7229,-76.726,19.44,71,0,5.14,US,1697958663
504,la foa,-21.7108,165.8276,23.08,68,56,4.35,NC,1697958709
505,oroqen zizhiqi,50.5667,123.7167,8.8,37,82,2.74,CN,1697958639
506,kourou,5.1552,-52.6478,25.03,92,98,3.26,GF,1697958709
507,golyshmanovo,56.3979,68.3728,1.05,98,100,5.4,RU,1697958709
508,cambria,35.5641,-121.0808,14.79,95,13,1.34,US,1697958709
509,chipata,-13.6333,32.65,28.55,37,96,4.02,ZM,1697958710
510,laguna,38.421,-121.4238,16.83,80,0,4.12,US,1697958710
511,obo,5.3998,26.4869,27.65,64,7,2.22,CF,1697958679
512,"laikit, laikit ii (dimembe)",1.4792,124.9735,27.47,84,40,2.06,ID,1697958710
513,fort st. john,56.2499,-120.8529,-2.06,100,100,2.57,CA,1697958710
514,kariba,-16.5167,28.8,30.9,40,95,1.18,ZW,1697958711
515,qandala,11.472,49.8728,29.06,66,100,2.62,SO,1697958711
516,polyarnyy,69.1989,33.4478,0.93,87,100,6.66,RU,1697958711
517,loen,7.7601,168.2307,28.23,74,100,4.17,MH,1697958711
518,goundi,9.3627,17.366,29.14,60,40,1.01,TD,1697958711
519,kashgar,39.4547,75.9797,17.79,17,64,2.23,CN,1697958712
520,helena valley southeast,46.6153,-111.9216,11.08,71,0,0.0,US,1697958712
521,bay roberts,47.5999,-53.2648,16.95,98,100,1.34,CA,1697958712
522,xai-xai,-25.0519,33.6442,28.48,50,2,0.89,MZ,1697958712
523,holualoa,19.6228,-155.9522,21.04,99,83,0.82,US,1697958713
524,tondano,1.3038,124.9112,25.05,73,70,1.19,ID,1697958575
525,tshabong,-26.05,22.45,23.24,29,0,4.0,BW,1697958713
526,sola,-13.8833,167.55,25.73,85,100,11.86,VU,1697958713
527,basse santa su,13.31,-14.2137,23.71,92,16,1.85,GM,1697958713
528,kununurra,-15.7667,128.7333,37.99,30,62,2.57,AU,1697958714
529,thinadhoo,0.5333,72.9333,27.36,78,91,6.42,MV,1697958714
530,bardai,11.65,7.2333,23.69,28,76,3.29,NG,1697958714
531,pisco,-13.7,-76.2167,18.03,94,98,4.12,PE,1697958645
532,svetlyy,54.675,20.1347,9.03,92,100,1.32,RU,1697958714
533,duba,27.3513,35.6901,30.3,39,0,3.11,SA,1697958715
534,puerto madryn,-42.7692,-65.0385,9.34,81,6,3.45,AR,1697958715
535,changping,40.2186,116.2197,23.8,16,0,2.51,CN,1697958715
536,sciacca,37.5082,13.0881,22.03,66,100,1.26,IT,1697958715
537,lumding railway colony,25.749,93.17,30.94,47,5,1.29,IN,1697958715
538,sovetskaya gavan',48.9723,140.2878,4.46,37,21,5.25,RU,1697958716
539,woolgoolga,-30.1106,153.2007,31.69,70,32,7.61,AU,1697958716
540,bei'an,24.5399,109.533,25.64,50,21,1.92,CN,1697958716
541,ashmun,30.2986,30.9764,23.47,62,0,3.55,EG,1697958716
542,mbandaka,0.0487,18.2603,24.49,90,100,0.32,CD,1697958716
543,ivdel',60.6911,60.4206,1.52,56,84,4.98,RU,1697958717
544,pontes e lacerda,-15.2261,-59.3353,25.97,39,79,0.99,BR,1697958717
545,nizhnesortymskiy,62.4397,71.7603,-0.65,78,68,7.4,RU,1697958717
546,likhovskoy,48.1519,40.1792,9.42,57,19,5.56,RU,1697958717
547,presidente epitacio,-21.7633,-52.1156,21.3,66,0,4.96,BR,1697958718
548,ulladulla,-35.35,150.4667,20.98,33,0,6.2,AU,1697958546
549,kalachinsk,55.0529,74.5751,4.79,63,100,6.89,RU,1697958718
550,leribe,-28.8718,28.045,18.05,46,6,2.49,LS,1697958718
551,qarauyl,48.9451,79.255,11.02,76,100,8.49,KZ,1697958718
552,cidreira,-30.1811,-50.2056,18.06,92,48,8.5,BR,1697958719
553,develi,38.3906,35.4922,12.64,38,9,0.75,TR,1697958719
554,berberati,4.2612,15.7922,23.79,88,54,0.94,CF,1697958719
555,kayenta,36.7278,-110.2546,17.33,23,0,2.86,US,1697958719
556,noosa heads,-26.3833,153.15,25.19,74,0,8.66,AU,1697958680
557,zalingei,12.9096,23.4741,28.52,19,0,2.56,SD,1697958720
558,sechura,-5.5569,-80.8222,21.1,81,41,5.12,PE,1697958720
559,ta`u,-14.2336,-169.5144,26.84,83,40,7.13,AS,1697958720
560,sao joao da barra,-21.6403,-41.0511,20.63,86,100,3.25,BR,1697958720
561,brisas de zicatela,15.8369,-97.0419,25.32,84,97,2.0,MX,1697958720
